{
    "ACHA_XX": {
        "elev": 0.14,
        "lat": 9.8278,
        "lon": -85.2476,
        "offdate": -1,
        "ondate": 2000001,
        "snet": "XX",
        "sta": "ACHA",
        "staname": "ACHA"
    },
    "ACON_NU": {
        "elev": 0.862,
        "lat": 11.968,
        "lon": -85.174,
        "offdate": -1,
        "ondate": 2008001,
        "snet": "NU",
        "sta": "ACON",
        "staname": "Acoyapa, Nicaragua"
    },
    "ANMO_-": {
        "elev": 1.82,
        "lat": 34.9459,
        "lon": -106.4572,
        "offdate": -1,
        "ondate": 2008182,
        "snet": "-",
        "sta": "ANMO",
        "staname": "Albuquerque, New Mexico, USA"
    },
    "AOPR_PR": {
        "elev": 0.3551,
        "lat": 18.3466,
        "lon": -66.754,
        "offdate": -1,
        "ondate": 2003090,
        "snet": "PR",
        "sta": "AOPR",
        "staname": "Arecibo Observatory"
    },
    "BARI_-": {
        "elev": 0.494,
        "lat": 10.8846,
        "lon": -85.3224,
        "offdate": -1,
        "ondate": 2011263,
        "snet": "-",
        "sta": "BARI",
        "staname": "Buenos Aires, Rincon"
    },
    "BATAN_OV": {
        "elev": 0.054,
        "lat": 10.0978,
        "lon": -83.3761,
        "offdate": -1,
        "ondate": 2007335,
        "snet": "OV",
        "sta": "BATAN",
        "staname": "BATAN, Limon"
    },
    "BCIP_CU": {
        "elev": 0.061,
        "lat": 9.1665,
        "lon": -79.8373,
        "offdate": -1,
        "ondate": 2006336,
        "snet": "CU",
        "sta": "BCIP",
        "staname": "Isla Barro Colorado, Panama"
    },
    "BLUN_-": {
        "elev": 0.05,
        "lat": 12.0052,
        "lon": -83.7747,
        "offdate": -1,
        "ondate": 2008001,
        "snet": "-",
        "sta": "BLUN",
        "staname": "Bluefields, Entresa, Nicaragua"
    },
    "CABA_XX": {
        "elev": 0.035,
        "lat": 10.2362,
        "lon": -85.3434,
        "offdate": -1,
        "ondate": 2000001,
        "snet": "XX",
        "sta": "CABA",
        "staname": "Caballito Guanacaste"
    },
    "CALV_OV": {
        "elev": 2.06,
        "lat": 9.7418,
        "lon": -83.9332,
        "offdate": -1,
        "ondate": 2013001,
        "snet": "OV",
        "sta": "CALV",
        "staname": "Estacion Temporal CALV"
    },
    "CAO2_OV": {
        "elev": 0.179,
        "lat": 9.688,
        "lon": -85.107,
        "offdate": -1,
        "ondate": 2012251,
        "snet": "OV",
        "sta": "CAO2",
        "staname": "Cobano, Guanacaste"
    },
    "CAO_OV": {
        "elev": 0.23,
        "lat": 9.6992,
        "lon": -85.1005,
        "offdate": -1,
        "ondate": 1984092,
        "snet": "OV",
        "sta": "CAO",
        "staname": "Cobano, Puntarenas"
    },
    "CAR_OV": {
        "elev": 0.052,
        "lat": 9.864,
        "lon": -85.4805,
        "offdate": -1,
        "ondate": 2012252,
        "snet": "OV",
        "sta": "CAR",
        "staname": "Carrillo"
    },
    "CCOL_-": {
        "elev": 0.089,
        "lat": 8.4075,
        "lon": -82.9734,
        "offdate": -1,
        "ondate": 2014274,
        "snet": "-",
        "sta": "CCOL",
        "staname": "Caracol de Corredores, Puntarenas"
    },
    "CDITO_OV": {
        "elev": 0.118,
        "lat": 8.5732,
        "lon": -82.8727,
        "offdate": -1,
        "ondate": 2008001,
        "snet": "OV",
        "sta": "CDITO",
        "staname": "COLORADITO, Corredores"
    },
    "CDM_OV": {
        "elev": 3.494,
        "lat": 9.5537,
        "lon": -83.7637,
        "offdate": -1,
        "ondate": 2010221,
        "snet": "OV",
        "sta": "CDM",
        "staname": "CERRO DE LA MUERTE, San Jose"
    },
    "COVE_OV": {
        "elev": 0.115,
        "lat": 10.7195,
        "lon": -84.4019,
        "offdate": -1,
        "ondate": 2010154,
        "snet": "OV",
        "sta": "COVE",
        "staname": "COOPE VEGA, San Carlos, Alajuela"
    },
    "CPAN_OV": {
        "elev": 2.198,
        "lat": 9.871,
        "lon": -83.866,
        "offdate": -1,
        "ondate": 2013143,
        "snet": "OV",
        "sta": "CPAN",
        "staname": "Cartago Paso Ancho"
    },
    "CRPO_-": {
        "elev": 2.471,
        "lat": 10.1953,
        "lon": -84.2261,
        "offdate": -1,
        "ondate": 2011274,
        "snet": "-",
        "sta": "CRPO",
        "staname": "crater poas"
    },
    "CTCR_OV": {
        "elev": 1.62,
        "lat": 8.8961,
        "lon": -82.7593,
        "offdate": -1,
        "ondate": 1984092,
        "snet": "OV",
        "sta": "CTCR",
        "staname": "Coton, Coto Brus"
    },
    "DUNO_OV": {
        "elev": 0.174,
        "lat": 10.0791,
        "lon": -85.4937,
        "offdate": -1,
        "ondate": 2010168,
        "snet": "OV",
        "sta": "DUNO",
        "staname": "DULCE NOMBRE, Nicoya, Guanacaste"
    },
    "EPA_OV": {
        "elev": 0.31,
        "lat": 9.9863,
        "lon": -84.595,
        "offdate": -1,
        "ondate": 1984092,
        "snet": "OV",
        "sta": "EPA",
        "staname": "Esparza, Puntarenas"
    },
    "GRAS_-": {
        "elev": 0.236,
        "lat": 9.9432,
        "lon": -85.5773,
        "offdate": -1,
        "ondate": 2000001,
        "snet": "-",
        "sta": "GRAS",
        "staname": "Estacion GRAS, Guanacaste"
    },
    "GRZA_OV": {
        "elev": 0.039,
        "lat": 9.9155,
        "lon": -85.6356,
        "offdate": -1,
        "ondate": 2000001,
        "snet": "OV",
        "sta": "GRZA",
        "staname": "Playa Garza"
    },
    "GRZA_XX": {
        "elev": 0.039,
        "lat": 9.9155,
        "lon": -85.6356,
        "offdate": -1,
        "ondate": 2000001,
        "snet": "XX",
        "sta": "GRZA",
        "staname": "Playa Garza"
    },
    "GTBY_CU": {
        "elev": 0.079,
        "lat": 19.9268,
        "lon": -75.1108,
        "offdate": -1,
        "ondate": 2007239,
        "snet": "CU",
        "sta": "GTBY",
        "staname": "Guantanamo Bay, Cuba"
    },
    "GUIO_-": {
        "elev": 0.039,
        "lat": 9.9167,
        "lon": -85.65,
        "offdate": -1,
        "ondate": 2000001,
        "snet": "-",
        "sta": "GUIO",
        "staname": "Estacion GUIO Guanacaste"
    },
    "HATI_OV": {
        "elev": 0.056,
        "lat": 10.2986,
        "lon": -85.7,
        "offdate": -1,
        "ondate": 2000001,
        "snet": "OV",
        "sta": "HATI",
        "staname": "HATI"
    },
    "HAYA_OV": {
        "elev": 3.245,
        "lat": 9.9801,
        "lon": -83.8428,
        "offdate": -1,
        "ondate": 1984092,
        "snet": "OV",
        "sta": "HAYA",
        "staname": "Volcan Irazu"
    },
    "HDC3_OV": {
        "elev": 1.175,
        "lat": 10.0021,
        "lon": -84.1114,
        "offdate": -1,
        "ondate": 2008294,
        "snet": "OV",
        "sta": "HDC3",
        "staname": "HEREDIA, Heredia"
    },
    "HRIU_XX": {
        "elev": 0.309,
        "lat": 10.5158,
        "lon": -85.7501,
        "offdate": -1,
        "ondate": 2000001,
        "snet": "XX",
        "sta": "HRIU",
        "staname": "Hotel RIU, Guanacaste"
    },
    "HZTE_OV": {
        "elev": 0.194,
        "lat": 10.7137,
        "lon": -85.5954,
        "offdate": -1,
        "ondate": 2008001,
        "snet": "OV",
        "sta": "HZTE",
        "staname": "HORIZONTES, Guanacaste"
    },
    "INDI_OV": {
        "elev": 0.074,
        "lat": 9.8665,
        "lon": -85.5022,
        "offdate": -1,
        "ondate": 2000001,
        "snet": "OV",
        "sta": "INDI",
        "staname": "Punta Indio, Guanacaste"
    },
    "INDI_XX": {
        "elev": 0.074,
        "lat": 9.8665,
        "lon": -85.5022,
        "offdate": -1,
        "ondate": 2000001,
        "snet": "XX",
        "sta": "INDI",
        "staname": "Punta Indio, Guanacaste"
    },
    "JACO_OV": {
        "elev": 0.085,
        "lat": 9.6624,
        "lon": -84.6595,
        "offdate": -1,
        "ondate": 2011049,
        "snet": "OV",
        "sta": "JACO",
        "staname": "JACO, Garabito, Puntarenas"
    },
    "JTS_II": {
        "elev": 0.34,
        "lat": 10.2908,
        "lon": -84.9525,
        "offdate": -1,
        "ondate": 1976001,
        "snet": "II",
        "sta": "JTS",
        "staname": "Las Juntas de Abangares, Costa Rica"
    },
    "JUD3_OV": {
        "elev": 0.665,
        "lat": 10.1686,
        "lon": -85.5388,
        "offdate": -1,
        "ondate": 1984092,
        "snet": "OV",
        "sta": "JUD3",
        "staname": "Juan Diaz"
    },
    "JUDI_XX": {
        "elev": 0.702,
        "lat": 10.1659,
        "lon": -85.5388,
        "offdate": -1,
        "ondate": 2012001,
        "snet": "XX",
        "sta": "JUDI",
        "staname": "Juan Diaz"
    },
    "LAFE_OV": {
        "elev": 0.069,
        "lat": 9.8072,
        "lon": -84.9103,
        "offdate": -1,
        "ondate": 2000001,
        "snet": "OV",
        "sta": "LAFE",
        "staname": "Finca La Fe,Paquera, Puntarenas"
    },
    "LAFE_XX": {
        "elev": 0.069,
        "lat": 9.8072,
        "lon": -84.9103,
        "offdate": -1,
        "ondate": 2000001,
        "snet": "XX",
        "sta": "LAFE",
        "staname": "Finca La Fe,Paquera, Puntarenas"
    },
    "LALO_-": {
        "elev": 0.056,
        "lat": 9.9666,
        "lon": -85.6666,
        "offdate": -1,
        "ondate": 2000001,
        "snet": "-",
        "sta": "LALO",
        "staname": "Estacion LALO Guanacaste"
    },
    "LAR_OV": {
        "elev": 2.04,
        "lat": 9.7085,
        "lon": -84.0123,
        "offdate": -1,
        "ondate": 1984092,
        "snet": "OV",
        "sta": "LAR",
        "staname": "La Roca"
    },
    "LEPA_OV": {
        "elev": 0.017,
        "lat": 9.9453,
        "lon": -85.0312,
        "offdate": -1,
        "ondate": 2000001,
        "snet": "OV",
        "sta": "LEPA",
        "staname": "Lepanto, Puntarenas"
    },
    "LIBE_OV": {
        "elev": 0.14,
        "lat": 10.6168,
        "lon": -85.4186,
        "offdate": -1,
        "ondate": 2011291,
        "snet": "OV",
        "sta": "LIBE",
        "staname": "Liberia, Guanacaste"
    },
    "LORE_-": {
        "elev": 2.43,
        "lat": 10.0432,
        "lon": -83.7269,
        "offdate": -1,
        "ondate": 1984092,
        "snet": "-",
        "sta": "LORE",
        "staname": "La Lorena, Volcan Turrialba"
    },
    "MANS_-": {
        "elev": 0.108,
        "lat": 10.0948,
        "lon": -85.3812,
        "offdate": -1,
        "ondate": 2012335,
        "snet": "-",
        "sta": "MANS",
        "staname": "Mansion, Guanacaste"
    },
    "MASN_NU": {
        "elev": 0.15,
        "lat": 12.0028,
        "lon": -86.0149,
        "offdate": -1,
        "ondate": 2008001,
        "snet": "NU",
        "sta": "MASN",
        "staname": "Volcan Masaya, Nicaragua"
    },
    "MIRM_-": {
        "elev": 0.439,
        "lat": 10.0333,
        "lon": -85.5666,
        "offdate": -1,
        "ondate": 2000001,
        "snet": "-",
        "sta": "MIRM",
        "staname": "Estacion MIRM Guanacaste"
    },
    "MTDJ_CU": {
        "elev": 0.925,
        "lat": 18.2261,
        "lon": -77.5345,
        "offdate": -1,
        "ondate": 2007342,
        "snet": "CU",
        "sta": "MTDJ",
        "staname": "Mount Denham, Jamaica"
    },
    "MURC_XX": {
        "elev": 0.052,
        "lat": 10.9009,
        "lon": -85.7301,
        "offdate": -1,
        "ondate": 2012283,
        "snet": "XX",
        "sta": "MURC",
        "staname": "Murcielago"
    },
    "NARJ_XX": {
        "elev": 0.576,
        "lat": 9.972,
        "lon": -85.5437,
        "offdate": -1,
        "ondate": 2012285,
        "snet": "XX",
        "sta": "NARJ",
        "staname": "Naranjo"
    },
    "NICO_OV": {
        "elev": 0.136,
        "lat": 10.1345,
        "lon": -85.447,
        "offdate": -1,
        "ondate": 2010211,
        "snet": "OV",
        "sta": "NICO",
        "staname": "Nicoya, Guanacaste"
    },
    "OCM_OV": {
        "elev": 1.607,
        "lat": 9.8941,
        "lon": -83.9623,
        "offdate": -1,
        "ondate": 2000001,
        "snet": "OV",
        "sta": "OCM",
        "staname": "Ochomogo, Cartago"
    },
    "ORTG_OV": {
        "elev": 0.76,
        "lat": 10.3623,
        "lon": -85.459,
        "offdate": -1,
        "ondate": 2012277,
        "snet": "OV",
        "sta": "ORTG",
        "staname": "Ortega, Santa Cruz, Guanacaste"
    },
    "OTAV_-": {
        "elev": 3.51,
        "lat": 0.2376,
        "lon": -78.4508,
        "offdate": -1,
        "ondate": 2009091,
        "snet": "-",
        "sta": "OTAV",
        "staname": "Otavalo, Ecuador"
    },
    "PAL_OV": {
        "elev": 1.481,
        "lat": 9.7829,
        "lon": -83.824,
        "offdate": -1,
        "ondate": 1984092,
        "snet": "OV",
        "sta": "PAL",
        "staname": "Palomo, Cartago"
    },
    "PBNC_OV": {
        "elev": 0.248,
        "lat": 8.3714,
        "lon": -83.1271,
        "offdate": -1,
        "ondate": 1984092,
        "snet": "OV",
        "sta": "PBNC",
        "staname": "Punta Banco, Puntarenas"
    },
    "PEZE_OV": {
        "elev": 0.807,
        "lat": 9.3826,
        "lon": -83.6775,
        "offdate": -1,
        "ondate": 2010154,
        "snet": "OV",
        "sta": "PEZE",
        "staname": "PEREZ ZELEDON, Campus UNA, Perez Zeledon, San Jose"
    },
    "PNBC_-": {
        "elev": 0.031,
        "lat": 9.5895,
        "lon": -85.0918,
        "offdate": -1,
        "ondate": 2012286,
        "snet": "-",
        "sta": "PNBC",
        "staname": "PNCB"
    },
    "PNE2_OV": {
        "elev": 0.04,
        "lat": 10.1951,
        "lon": -85.8289,
        "offdate": -1,
        "ondate": 2000001,
        "snet": "OV",
        "sta": "PNE2",
        "staname": "Playa Negra, Guanacaste"
    },
    "PNE2_XX": {
        "elev": 0.04,
        "lat": 10.1951,
        "lon": -85.8289,
        "offdate": -1,
        "ondate": 2000001,
        "snet": "XX",
        "sta": "PNE2",
        "staname": "Playa Negra, Guanacaste"
    },
    "PNPB_OV": {
        "elev": 0.11,
        "lat": 8.6844,
        "lon": -83.2284,
        "offdate": -1,
        "ondate": 2012245,
        "snet": "OV",
        "sta": "PNPB",
        "staname": "Parque Nacional Piedras Blnacas , Golfito , Puntae"
    },
    "PNUA_OV": {
        "elev": 0.049,
        "lat": 10.5955,
        "lon": -83.8399,
        "offdate": -1,
        "ondate": 2012279,
        "snet": "OV",
        "sta": "PNUA",
        "staname": "Pueblo Nuevo de la Aldea, Limon"
    },
    "POA5_OV": {
        "elev": 2.425,
        "lat": 10.2044,
        "lon": -84.2297,
        "offdate": -1,
        "ondate": 1984092,
        "snet": "OV",
        "sta": "POA5",
        "staname": "Crater Von Franzius, Volcan Poas"
    },
    "POPE_XX": {
        "elev": 0.037,
        "lat": 10.0635,
        "lon": -85.2634,
        "offdate": -1,
        "ondate": 2000001,
        "snet": "XX",
        "sta": "POPE",
        "staname": "POPE, Guanacaste"
    },
    "POTG_OV": {
        "elev": 0.674,
        "lat": 9.0525,
        "lon": -83.1189,
        "offdate": -1,
        "ondate": 2014099,
        "snet": "OV",
        "sta": "POTG",
        "staname": "Potrero Grande  , Buenos Aires , Puntarenas"
    },
    "PUJE_OV": {
        "elev": 0.042,
        "lat": 10.1139,
        "lon": -85.2725,
        "offdate": -1,
        "ondate": 2000001,
        "snet": "OV",
        "sta": "PUJE",
        "staname": "Puerto Jesus Guanacaste"
    },
    "PUJE_XX": {
        "elev": 0.042,
        "lat": 10.1139,
        "lon": -85.2725,
        "offdate": -1,
        "ondate": 2000001,
        "snet": "XX",
        "sta": "PUJE",
        "staname": "Puerto Jesus Guanacaste"
    },
    "QPSB_OV": {
        "elev": 0.052,
        "lat": 9.3919,
        "lon": -84.1239,
        "offdate": -1,
        "ondate": 2012040,
        "snet": "OV",
        "sta": "QPSB",
        "staname": "QUEPOS, Puntarenas"
    },
    "RIFO_OV": {
        "elev": 0.139,
        "lat": 10.3172,
        "lon": -83.9228,
        "offdate": -1,
        "ondate": 2010105,
        "snet": "OV",
        "sta": "RIFO",
        "staname": "RIO FRIO, Sarapiqui, Heredia"
    },
    "RIMA_OV": {
        "elev": 1.665,
        "lat": 9.7666,
        "lon": -83.8636,
        "offdate": -1,
        "ondate": 2012245,
        "snet": "OV",
        "sta": "RIMA",
        "staname": "Rio Macho"
    },
    "RIOS_OV": {
        "elev": 0.081,
        "lat": 8.7005,
        "lon": -83.5143,
        "offdate": -1,
        "ondate": 2008001,
        "snet": "OV",
        "sta": "RIOS",
        "staname": "RINCON, Osa"
    },
    "RIRI_-": {
        "elev": 0.928,
        "lat": 10.7882,
        "lon": -85.3652,
        "offdate": -1,
        "ondate": 2011263,
        "snet": "-",
        "sta": "RIRI",
        "staname": "Parque Rincon de la Vieja"
    },
    "SAJU_OV": {
        "elev": 0.09,
        "lat": 10.0673,
        "lon": -85.7105,
        "offdate": -1,
        "ondate": 2000001,
        "snet": "OV",
        "sta": "SAJU",
        "staname": "San Juanillo, Guanacaste"
    },
    "SAJU_XX": {
        "elev": 0.09,
        "lat": 10.0673,
        "lon": -85.7105,
        "offdate": -1,
        "ondate": 2000001,
        "snet": "XX",
        "sta": "SAJU",
        "staname": "San Juanillo, Guanacaste"
    },
    "SAMA_-": {
        "elev": 0.052,
        "lat": 9.8833,
        "lon": -85.55,
        "offdate": -1,
        "ondate": 2000001,
        "snet": "-",
        "sta": "SAMA",
        "staname": "Estacion SAMARA Guanacaste"
    },
    "SDDR_CU": {
        "elev": 0.589,
        "lat": 18.9821,
        "lon": -71.2878,
        "offdate": -1,
        "ondate": 2006242,
        "snet": "CU",
        "sta": "SDDR",
        "staname": "Presa de Sabenta, Dominican Republic"
    },
    "SDV_-": {
        "elev": 1.62,
        "lat": 8.8839,
        "lon": -70.634,
        "offdate": -1,
        "ondate": 2010017,
        "snet": "-",
        "sta": "SDV",
        "staname": "Santo Domingo, Venezuela"
    },
    "SRBA_OV": {
        "elev": 0.974,
        "lat": 9.2321,
        "lon": -83.3601,
        "offdate": -1,
        "ondate": 2014142,
        "snet": "OV",
        "sta": "SRBA",
        "staname": "San Rafael , Buenos Aires , Puntarenas"
    },
    "TAM_OV": {
        "elev": 0.005,
        "lat": 10.2635,
        "lon": -85.8482,
        "offdate": -1,
        "ondate": 2012251,
        "snet": "OV",
        "sta": "TAM",
        "staname": "Tamarindo, Guanacaste"
    },
    "TBLN_OV": {
        "elev": 1.596,
        "lat": 9.8237,
        "lon": -83.9993,
        "offdate": -1,
        "ondate": 2012262,
        "snet": "OV",
        "sta": "TBLN",
        "staname": "Tablon, Guarco"
    },
    "TEIG_-": {
        "elev": 0.04,
        "lat": 20.2263,
        "lon": -88.2763,
        "offdate": -1,
        "ondate": 2009261,
        "snet": "-",
        "sta": "TEIG",
        "staname": "Tepich, Yucatan, Mexico"
    },
    "TGUH_CU": {
        "elev": 1.151,
        "lat": 14.057,
        "lon": -87.273,
        "offdate": -1,
        "ondate": 2006263,
        "snet": "CU",
        "sta": "TGUH",
        "staname": "Tegucigalpa, Honduras"
    },
    "TIG2_OV": {
        "elev": 0.58,
        "lat": 9.0284,
        "lon": -83.2969,
        "offdate": -1,
        "ondate": 1984092,
        "snet": "OV",
        "sta": "TIG2",
        "staname": "Cerro Tigre, Buenos Aires de Puntarenas"
    },
    "TJAR_OV": {
        "elev": 1.414,
        "lat": 9.8504,
        "lon": -83.9302,
        "offdate": -1,
        "ondate": 2013001,
        "snet": "OV",
        "sta": "TJAR",
        "staname": "Estacion Temporal TJAR"
    },
    "TLLA_OV": {
        "elev": 2.688,
        "lat": 10.0016,
        "lon": -83.7753,
        "offdate": -1,
        "ondate": 1984092,
        "snet": "OV",
        "sta": "TLLA",
        "staname": "Tiendilla, Volcan Turrialba"
    },
    "VACR_OV": {
        "elev": 0.37,
        "lat": 10.472,
        "lon": -84.675,
        "offdate": -1,
        "ondate": 1984092,
        "snet": "OV",
        "sta": "VACR",
        "staname": "Volcan Arenal"
    },
    "VAVL_-": {
        "elev": 0.749,
        "lat": 10.4373,
        "lon": -84.7091,
        "offdate": -1,
        "ondate": 2012092,
        "snet": "-",
        "sta": "VAVL",
        "staname": "VAVL, Volcan Arenal, Volcano Lodge"
    },
    "VICA_OV": {
        "elev": 3.358,
        "lat": 9.9845,
        "lon": -83.8446,
        "offdate": -1,
        "ondate": 2014114,
        "snet": "OV",
        "sta": "VICA",
        "staname": "Crater Activo, Volcan Irazu"
    },
    "VIRE_-": {
        "elev": 2.971,
        "lat": 9.9668,
        "lon": -83.8975,
        "offdate": -1,
        "ondate": 2012122,
        "snet": "-",
        "sta": "VIRE",
        "staname": "Volcan irazu hacienda Retes"
    },
    "VMAR_OV": {
        "elev": 0.58,
        "lat": 10.8125,
        "lon": -85.1205,
        "offdate": -1,
        "ondate": 2013314,
        "snet": "OV",
        "sta": "VMAR",
        "staname": "Armenia, Volcan Miravalles"
    },
    "VPTE_OV": {
        "elev": 2.109,
        "lat": 10.1718,
        "lon": -84.1985,
        "offdate": -1,
        "ondate": 2013263,
        "snet": "OV",
        "sta": "VPTE",
        "staname": "Terranova, Volcan Poas"
    },
    "VPVF_-": {
        "elev": 2.431,
        "lat": 10.2045,
        "lon": -84.2297,
        "offdate": -1,
        "ondate": 2014084,
        "snet": "-",
        "sta": "VPVF",
        "staname": "VPVF, von Frantzius"
    },
    "VRLE_OV": {
        "elev": 0.921,
        "lat": 10.7883,
        "lon": -85.3652,
        "offdate": -1,
        "ondate": 2014143,
        "snet": "OV",
        "sta": "VRLE",
        "staname": "La Escondida, Volcán Rincón de la Vieja, Guanaca"
    },
    "VTCE_-": {
        "elev": 3.178,
        "lat": 10.0246,
        "lon": -83.7568,
        "offdate": -1,
        "ondate": 2010091,
        "snet": "-",
        "sta": "VTCE",
        "staname": "CRATER ESTE, Volcan Turrialba"
    },
    "VTCG_OV": {
        "elev": 3.136,
        "lat": 10.0147,
        "lon": -83.7586,
        "offdate": -1,
        "ondate": 2010091,
        "snet": "OV",
        "sta": "VTCG",
        "staname": "CASA GUARDA, Volcan Turrialba"
    },
    "VTCV_OV": {
        "elev": 1.664,
        "lat": 9.9831,
        "lon": -83.7267,
        "offdate": -1,
        "ondate": 2012114,
        "snet": "OV",
        "sta": "VTCV",
        "staname": "VTCV, Calle Vargas, Turrialba"
    },
    "VTRE_-": {
        "elev": 2.706,
        "lat": 10.0018,
        "lon": -83.7945,
        "offdate": -1,
        "ondate": 2012153,
        "snet": "-",
        "sta": "VTRE",
        "staname": "Volcan Turrialba, Hacienda Retiro"
    },
    "VTUC_OV": {
        "elev": 3.191,
        "lat": 10.024,
        "lon": -83.762,
        "offdate": -1,
        "ondate": 1984092,
        "snet": "OV",
        "sta": "VTUC",
        "staname": "CRATER, Volcan Turrialba, Cartago"
    },
    "VTUN_OV": {
        "elev": 3.239,
        "lat": 10.0226,
        "lon": -83.7635,
        "offdate": -1,
        "ondate": 2010001,
        "snet": "OV",
        "sta": "VTUN",
        "staname": "CRATER CENTRAL, Volcan Turrialba, Cartago"
    },
    "ZERI_-": {
        "elev": 0.658,
        "lat": 10.867,
        "lon": -85.404,
        "offdate": -1,
        "ondate": 2011263,
        "snet": "-",
        "sta": "ZERI",
        "staname": "Nueva Zelanda, Rincon"
    }
}